[{"name":"GoingOn","category":"software","tama\u00f1o_empresa":"small","long":-122.392142,"lat":37.782263},{"name":"Crunchyroll","category":"games_video","tama\u00f1o_empresa":"small","long":-122.393229,"lat":37.781265},{"name":"GENWI","category":"mobile","tama\u00f1o_empresa":"small","long":-111.9035,"lat":33.8171},{"name":"Fixya","category":"web","tama\u00f1o_empresa":"small","long":-122.323895,"lat":37.566879},{"name":"First30Days","category":"web","tama\u00f1o_empresa":"small","long":-85.717393,"lat":38.257035},{"name":"Social Gaming Network","category":"games_video","tama\u00f1o_empresa":"small","long":-122.161523,"lat":37.446823},{"name":"Stumpedia","category":"web","tama\u00f1o_empresa":"startup","long":-74.370313,"lat":40.219214},{"name":"99designs","category":"design","tama\u00f1o_empresa":"small","long":-122.4005983,"lat":37.7955307},{"name":"Skydeck","category":"mobile","tama\u00f1o_empresa":"startup","long":-122.3254705,"lat":37.5645375},{"name":"Magento","category":"ecommerce","tama\u00f1o_empresa":"medium","long":-118.243425,"lat":34.052187},{"name":"Intent","category":"web","tama\u00f1o_empresa":"startup","long":-118.495981,"lat":34.01052},{"name":"Noovo","category":"web","tama\u00f1o_empresa":"startup","long":-122.155678,"lat":37.446382},{"name":"AudioMicro","category":"games_video","tama\u00f1o_empresa":"startup","long":-118.422495,"lat":34.153588},{"name":"Mojiva","category":"mobile","tama\u00f1o_empresa":"medium","long":-73.998662,"lat":40.7185614},{"name":"GitHub","category":"software","tama\u00f1o_empresa":"medium","long":-122.419204,"lat":37.775196},{"name":"Mad Mimi","category":"web","tama\u00f1o_empresa":"small","long":-73.980306,"lat":40.66509},{"name":"UserVoice","category":"software","tama\u00f1o_empresa":"small","long":-122.0253784,"lat":36.9751032},{"name":"Serious Business","category":"games_video","tama\u00f1o_empresa":"small","long":-122.4013624,"lat":37.7893215},{"name":"New Relic","category":"software","tama\u00f1o_empresa":"small","long":-119.306607,"lat":37.269175},{"name":"Jinni","category":"games_video","tama\u00f1o_empresa":"small","long":34.7595,"lat":32.0554},{"name":"Smarkets","category":"sports","tama\u00f1o_empresa":"small","long":-0.130772,"lat":51.550757},{"name":"Stitcher","category":"mobile","tama\u00f1o_empresa":"small","long":-122.419204,"lat":37.775196},{"name":"Socruise","category":"web","tama\u00f1o_empresa":"startup","long":0.257568,"lat":51.125693},{"name":"Pinch Media","category":"software","tama\u00f1o_empresa":"startup","long":-73.985506,"lat":40.757929},{"name":"Orbster","category":"mobile","tama\u00f1o_empresa":"startup","long":8.4102781,"lat":49.0092558},{"name":"BrandYourself","category":"web","tama\u00f1o_empresa":"small","long":-71.24762,"lat":42.275263},{"name":"Tapulous","category":"mobile","tama\u00f1o_empresa":"small","long":-122.161018,"lat":37.444332},{"name":"Titan Gaming","category":"games_video","tama\u00f1o_empresa":"small","long":-113.515769,"lat":53.544711},{"name":"gAuto","category":"ecommerce","tama\u00f1o_empresa":"startup","long":-111.923849,"lat":33.533027},{"name":"Posterous","category":"web","tama\u00f1o_empresa":"startup","long":-122.419204,"lat":37.775196},{"name":"Open Places","category":"web","tama\u00f1o_empresa":"startup","long":-122.398379,"lat":37.758352},{"name":"TweetDeck","category":"software","tama\u00f1o_empresa":"startup","long":-0.1262362,"lat":51.5001524},{"name":"Wahanda","category":"web","tama\u00f1o_empresa":"small","long":1.996567,"lat":41.792265},{"name":"IBTgames","category":"games_video","tama\u00f1o_empresa":"small","long":90.401432,"lat":23.797333},{"name":"Samfind","category":"software","tama\u00f1o_empresa":"small","long":-118.385271,"lat":34.052107},{"name":"Prezi","category":"software","tama\u00f1o_empresa":"medium","long":19.059078,"lat":47.490346},{"name":"ngmoco","category":"games_video","tama\u00f1o_empresa":"medium","long":-122.4015807,"lat":37.7705096},{"name":"CompareAway","category":"web","tama\u00f1o_empresa":"startup","long":-1.574948,"lat":54.703145},{"name":"Integrate","category":"software","tama\u00f1o_empresa":"medium","long":-74.0353787,"lat":40.7481039},{"name":"vufind","category":"mobile","tama\u00f1o_empresa":"startup","long":-122.145153,"lat":37.424614},{"name":"Poll Everywhere","category":"mobile","tama\u00f1o_empresa":"small","long":-87.625271,"lat":41.864917},{"name":"YadaHome","category":"network_hosting","tama\u00f1o_empresa":"startup","long":-77.028561,"lat":38.897976},{"name":"Occipital","category":"software","tama\u00f1o_empresa":"startup","long":-105.278109,"lat":40.018145},{"name":"iCharts","category":"analytics","tama\u00f1o_empresa":"small","long":-122.012475,"lat":37.384239},{"name":"Producteev","category":"software","tama\u00f1o_empresa":"startup","long":-73.983656,"lat":40.775309},{"name":"Twonq","category":"web","tama\u00f1o_empresa":"startup","long":-122.403223,"lat":37.794124},{"name":"Tweegee","category":"games_video","tama\u00f1o_empresa":"small","long":34.8003705,"lat":32.037363},{"name":"Spare Change Payments","category":"web","tama\u00f1o_empresa":"startup","long":-122.055177,"lat":37.323234},{"name":"Lolapps","category":"web","tama\u00f1o_empresa":"small","long":-122.3999719,"lat":37.7870923},{"name":"InnerRewards","category":"ecommerce","tama\u00f1o_empresa":"startup","long":-122.404403,"lat":37.78691},{"name":"Integrate","category":"software","tama\u00f1o_empresa":"medium","long":-74.0353787,"lat":40.7481039},{"name":"vufind","category":"mobile","tama\u00f1o_empresa":"startup","long":-122.145153,"lat":37.424614},{"name":"Poll Everywhere","category":"mobile","tama\u00f1o_empresa":"small","long":-87.625271,"lat":41.864917},{"name":"YadaHome","category":"network_hosting","tama\u00f1o_empresa":"startup","long":-77.028561,"lat":38.897976},{"name":"Occipital","category":"software","tama\u00f1o_empresa":"startup","long":-105.278109,"lat":40.018145},{"name":"iCharts","category":"analytics","tama\u00f1o_empresa":"small","long":-122.012475,"lat":37.384239},{"name":"Producteev","category":"software","tama\u00f1o_empresa":"startup","long":-73.983656,"lat":40.775309},{"name":"Twonq","category":"web","tama\u00f1o_empresa":"startup","long":-122.403223,"lat":37.794124},{"name":"Tweegee","category":"games_video","tama\u00f1o_empresa":"small","long":34.8003705,"lat":32.037363},{"name":"Spare Change Payments","category":"web","tama\u00f1o_empresa":"startup","long":-122.055177,"lat":37.323234},{"name":"Lolapps","category":"web","tama\u00f1o_empresa":"small","long":-122.3999719,"lat":37.7870923},{"name":"InnerRewards","category":"ecommerce","tama\u00f1o_empresa":"startup","long":-122.404403,"lat":37.78691},{"name":"DealBase Corporation","category":"web","tama\u00f1o_empresa":"startup","long":-122.3277578,"lat":37.5758867},{"name":"Cliqset","category":"web","tama\u00f1o_empresa":"startup","long":-81.657707,"lat":30.310978},{"name":"Groupon","category":"web","tama\u00f1o_empresa":"big","long":-87.643622,"lat":41.8965162},{"name":"BuzzStream","category":"software","tama\u00f1o_empresa":"startup","long":-97.750885,"lat":30.290699},{"name":"Big In Japan","category":"mobile","tama\u00f1o_empresa":"small","long":-96.820064,"lat":32.800325},{"name":"iKlax Media","category":"software","tama\u00f1o_empresa":"startup","long":-1.5555799,"lat":43.4477272},{"name":"Sailthru","category":"public_relations","tama\u00f1o_empresa":"small","long":-74.008159,"lat":40.738143},{"name":"AlphaClone","category":"finance","tama\u00f1o_empresa":"startup","long":-122.403073,"lat":37.79023},{"name":"Formspring","category":"web","tama\u00f1o_empresa":"small","long":-86.0547016,"lat":39.9052263},{"name":"Wishabi","category":"ecommerce","tama\u00f1o_empresa":"small","long":-79.567221,"lat":43.644678},{"name":"CarZen","category":"web","tama\u00f1o_empresa":"startup","long":-73.951865,"lat":40.76945},{"name":"Dukky","category":"analytics","tama\u00f1o_empresa":"small","long":-90.082202,"lat":29.973994},{"name":"BrightScope","category":"finance","tama\u00f1o_empresa":"small","long":-117.2117395,"lat":32.873081},{"name":"Yipit","category":"web","tama\u00f1o_empresa":"small","long":-73.987764,"lat":40.744618},{"name":"FiPath","category":"finance","tama\u00f1o_empresa":"startup","long":-84.389663,"lat":33.754487},{"name":"Virgance","category":"web","tama\u00f1o_empresa":"small","long":-122.394958,"lat":37.781262},{"name":"Saltlick Labs","category":"mobile","tama\u00f1o_empresa":"startup","long":-97.8014482,"lat":30.4156188},{"name":"Double Encore","category":"software","tama\u00f1o_empresa":"small","long":-104.955012,"lat":39.69263},{"name":"Movirtu","category":"mobile","tama\u00f1o_empresa":"small","long":-0.1815999,"lat":51.5499708},{"name":"mobiManage","category":"mobile","tama\u00f1o_empresa":"small","long":-95.9550264,"lat":36.0463849},{"name":"People Capital","category":"web","tama\u00f1o_empresa":"startup","long":-73.986951,"lat":40.756054},{"name":"MarketRiders","category":"web","tama\u00f1o_empresa":"startup","long":-121.9909454,"lat":37.8097439},{"name":"Silver Tail Systems","category":"analytics","tama\u00f1o_empresa":"small","long":-122.143368,"lat":37.4280877},{"name":"Tengaged","category":"games_video","tama\u00f1o_empresa":"startup","long":2.1634249,"lat":41.4241228},{"name":"Drync","category":"mobile","tama\u00f1o_empresa":"startup","long":-71.14462,"lat":42.376862},{"name":"Coveroo","category":"hardware","tama\u00f1o_empresa":"small","long":-122.407603,"lat":37.770067},{"name":"ZimpleMoney","category":"software","tama\u00f1o_empresa":"startup","long":-117.9416077,"lat":33.6396749},{"name":"Wealthfront","category":"finance","tama\u00f1o_empresa":"small","long":-122.1490582,"lat":37.4459832},{"name":"StockTwits","category":"web","tama\u00f1o_empresa":"small","long":-117.168697,"lat":32.7161896},{"name":"RJMetrics","category":"software","tama\u00f1o_empresa":"small","long":-75.1257381,"lat":39.9443552},{"name":"5th Finger","category":"mobile","tama\u00f1o_empresa":"small","long":-122.4021988,"lat":37.7900992},{"name":"Meez","category":"hardware","tama\u00f1o_empresa":"small","long":-122.397582,"lat":37.785271},{"name":"Zopim","category":"ecommerce","tama\u00f1o_empresa":"small","long":103.7807403,"lat":1.290801},{"name":"KODA","category":"web","tama\u00f1o_empresa":"small","long":-122.40971,"lat":37.788796},{"name":"Audiolife","category":"ecommerce","tama\u00f1o_empresa":"small","long":-118.487236,"lat":34.213925},{"name":"Shutl","category":"ecommerce","tama\u00f1o_empresa":"startup","long":-0.1020265,"lat":51.5196135},{"name":"Socialize","category":"mobile","tama\u00f1o_empresa":"startup","long":-76.998641,"lat":38.88521},{"name":"AdventureDrop","category":"web","tama\u00f1o_empresa":"startup","long":-121.9478049,"lat":37.3218356},{"name":"Zapproved","category":"software","tama\u00f1o_empresa":"small","long":-122.8097,"lat":45.5251},{"name":"studdex","category":"web","tama\u00f1o_empresa":"startup","long":7.3554365,"lat":51.4523335},{"name":"Tinychat","category":"web","tama\u00f1o_empresa":"startup","long":-72.5196907,"lat":42.3756409},{"name":"Comunitae","category":"finance","tama\u00f1o_empresa":"startup","long":-3.7033403,"lat":40.4905109},{"name":"BASH Gaming","category":"games_video","tama\u00f1o_empresa":"small","long":-122.0780632,"lat":37.5561712},{"name":"Dodreams","category":"games_video","tama\u00f1o_empresa":"startup","long":24.9438568,"lat":60.1659819},{"name":"L4 Mobile","category":"mobile","tama\u00f1o_empresa":"small","long":-122.2049192,"lat":47.676762},{"name":"SocialCom","category":"ecommerce","tama\u00f1o_empresa":"startup","long":13.3740493,"lat":52.5375697},{"name":"SeatKarma","category":"web","tama\u00f1o_empresa":"startup","long":-95.452352,"lat":29.717881},{"name":"AppZero","category":"software","tama\u00f1o_empresa":"small","long":-71.1469003,"lat":42.6751888},{"name":"howsimple","category":"web","tama\u00f1o_empresa":"small","long":-116.7732162,"lat":33.7836802},{"name":"Parents R People","category":"network_hosting","tama\u00f1o_empresa":"startup","long":-73.410677,"lat":40.803329},{"name":"Viridity Software","category":"software","tama\u00f1o_empresa":"small","long":-71.1986329,"lat":42.4871509},{"name":"Optify","category":"software","tama\u00f1o_empresa":"small","long":-122.333359,"lat":47.603364},{"name":"Wee Web","category":"web","tama\u00f1o_empresa":"startup","long":-73.986951,"lat":40.756054},{"name":"IGLOO Software","category":"software","tama\u00f1o_empresa":"small","long":-80.487328,"lat":43.4496954},{"name":"Fantazzle Fantasy Sports Games","category":"sports","tama\u00f1o_empresa":"startup","long":-77.0867028,"lat":38.8763991},{"name":"Gridstore","category":"network_hosting","tama\u00f1o_empresa":"small","long":-122.0884286,"lat":37.4189073},{"name":"Proper Cloth","category":"ecommerce","tama\u00f1o_empresa":"startup","long":-74.008767,"lat":40.723351},{"name":"userADgents","category":"mobile","tama\u00f1o_empresa":"small","long":2.334266,"lat":48.8775197},{"name":"SCVNGR","category":"games_video","tama\u00f1o_empresa":"small","long":-71.0680027,"lat":42.3406534},{"name":"Kapitall","category":"finance","tama\u00f1o_empresa":"small","long":-73.9983139,"lat":40.720391},{"name":"Home-Account","category":"finance","tama\u00f1o_empresa":"startup","long":-122.391686,"lat":37.778551},{"name":"Arimaz","category":"games_video","tama\u00f1o_empresa":"startup","long":6.5877024,"lat":46.5389248},{"name":"ProtoShare","category":"software","tama\u00f1o_empresa":"small","long":-122.675255,"lat":45.519475},{"name":"GameChanger Media","category":"software","tama\u00f1o_empresa":"small","long":-74.0136605,"lat":40.7078343},{"name":"IntheGlo","category":"ecommerce","tama\u00f1o_empresa":"startup","long":-73.987764,"lat":40.744618},{"name":"Z2Live","category":"games_video","tama\u00f1o_empresa":"medium","long":-122.3399782,"lat":47.6103008},{"name":"SwapBeats","category":"software","tama\u00f1o_empresa":"small","long":-93.264351,"lat":44.977482},{"name":"Gate 53|10 Technologies","category":"web","tama\u00f1o_empresa":"startup","long":10.0184565,"lat":53.5736401},{"name":"Tongal","category":"web","tama\u00f1o_empresa":"startup","long":-118.489748,"lat":34.007112},{"name":"Ranker","category":"web","tama\u00f1o_empresa":"small","long":-118.325739,"lat":34.1012181},{"name":"Link Trigger","category":"software","tama\u00f1o_empresa":"startup","long":-80.1510951,"lat":26.2032036},{"name":"tracx","category":"analytics","tama\u00f1o_empresa":"small","long":34.7595,"lat":32.0554},{"name":"Chartbeat","category":"analytics","tama\u00f1o_empresa":"small","long":-73.990967,"lat":40.73343},{"name":"Brandsclub","category":"ecommerce","tama\u00f1o_empresa":"medium","long":-46.6388182,"lat":-23.5489433},{"name":"Smallaa","category":"web","tama\u00f1o_empresa":"startup","long":-121.928393,"lat":37.39458},{"name":"Joobili","category":"web","tama\u00f1o_empresa":"startup","long":19.0284923,"lat":47.4953663},{"name":"BoardEvals","category":"software","tama\u00f1o_empresa":"startup","long":-121.084432,"lat":38.709006},{"name":"WEEZEVENT","category":"ecommerce","tama\u00f1o_empresa":"small","long":2.4476331,"lat":48.8952712},{"name":"1calendar","category":"software","tama\u00f1o_empresa":"startup","long":12.5751278,"lat":55.6770321},{"name":"Milo","category":"web","tama\u00f1o_empresa":"small","long":-122.163352,"lat":37.444531},{"name":"Servo Software","category":"software","tama\u00f1o_empresa":"small","long":-122.292146,"lat":37.552262},{"name":"DP7 Digital","category":"software","tama\u00f1o_empresa":"startup","long":-46.6773686,"lat":-23.5815208},{"name":"Bueno Inc","category":"public_relations","tama\u00f1o_empresa":"small","long":-80.1866834,"lat":25.8107412},{"name":"The Resumator","category":"software","tama\u00f1o_empresa":"small","long":-80.001933,"lat":40.438423},{"name":"YOOSE","category":"mobile","tama\u00f1o_empresa":"startup","long":13.3892132,"lat":52.5145532},{"name":"Udorse","category":"web","tama\u00f1o_empresa":"startup","long":-73.986951,"lat":40.756054},{"name":"BitMethod","category":"mobile","tama\u00f1o_empresa":"startup","long":-93.621998,"lat":41.581232},{"name":"Ykone","category":"web","tama\u00f1o_empresa":"startup","long":2.3509871,"lat":48.8566667},{"name":"BetKlub","category":"games_video","tama\u00f1o_empresa":"startup","long":2.3639174,"lat":48.8787606},{"name":"Kimengi","category":"web","tama\u00f1o_empresa":"startup","long":4.8852747,"lat":52.3735592},{"name":"Joroto","category":"web","tama\u00f1o_empresa":"startup","long":-81.165981,"lat":41.701368},{"name":"Layar","category":"mobile","tama\u00f1o_empresa":"small","long":4.8928722,"lat":52.3657578},{"name":"Lipperhey","category":"software","tama\u00f1o_empresa":"startup","long":4.9345824,"lat":52.3655578},{"name":"CrowdGather","category":"web","tama\u00f1o_empresa":"startup","long":-118.575293,"lat":34.168955},{"name":"Mobiles Republic","category":"mobile","tama\u00f1o_empresa":"small","long":-0.5754294,"lat":44.8743952},{"name":"ubigrate","category":"software","tama\u00f1o_empresa":"small","long":13.7759644,"lat":51.0343624},{"name":"ChallengePost","category":"web","tama\u00f1o_empresa":"small","long":-74.00717,"lat":40.7408042},{"name":"StyleCaster","category":"web","tama\u00f1o_empresa":"small","long":-73.9900984,"lat":40.7450497},{"name":"Teambox","category":"web","tama\u00f1o_empresa":"small","long":2.1920231,"lat":41.4063346},{"name":"Testplant","category":"software","tama\u00f1o_empresa":"small","long":-0.1037742,"lat":51.517356},{"name":"Homesnap","category":"analytics","tama\u00f1o_empresa":"small","long":-77.084811,"lat":38.960381},{"name":"Culture Jam","category":"web","tama\u00f1o_empresa":"small","long":-118.4660597,"lat":34.0137151},{"name":"Continuity Engine","category":"software","tama\u00f1o_empresa":"small","long":-73.2435522,"lat":41.3279176},{"name":"Pipit Interactive","category":"ecommerce","tama\u00f1o_empresa":"startup","long":-118.47036,"lat":34.045499},{"name":"Tiny Speck","category":"games_video","tama\u00f1o_empresa":"small","long":-123.109217,"lat":49.2824551},{"name":"Getyoo","category":"mobile","tama\u00f1o_empresa":"startup","long":4.3464721,"lat":50.83997}]