[{"name":"SFentrepreneur","long":-122.437262,"lat":37.78597},{"name":"Startup Revival","long":-122.419204,"lat":37.775196},{"name":"TopNotchThemes","long":-122.4186,"lat":37.7753},{"name":"Same Page Capital","long":-122.4194155,"lat":37.7749295},{"name":"Stitcher","long":-122.419204,"lat":37.775196},{"name":"GitHub","long":-122.419204,"lat":37.775196},{"name":"148Apps","long":-122.419204,"lat":37.775196},{"name":"Advisor","long":-122.4177157,"lat":37.7763989},{"name":"stickychicken","long":-122.419204,"lat":37.775196},{"name":"Bizroof","long":-122.418829,"lat":37.781249},{"name":"LendingKarma","long":-122.4186,"lat":37.7753},{"name":"Finest Expert","long":-122.419204,"lat":37.775196},{"name":"Ninite","long":-122.412893,"lat":37.789349},{"name":"Tivix","long":-122.423132,"lat":37.792303},{"name":"Posterous","long":-122.419204,"lat":37.775196},{"name":"Fliptop","long":-122.419209,"lat":37.775206},{"name":"KODA","long":-122.40971,"lat":37.788796},{"name":"EcoFlip","long":-122.420903,"lat":37.796164},{"name":"Yammer","long":-122.4179223,"lat":37.776246}]